[
  {"id":"eg-001","country":"EG","type":"hypermarket","name":"Hyper One - 6th October","lat":29.9829,"lng":30.8911,"region":"eg-giza"},
  {"id":"eg-002","country":"EG","type":"supermarket","name":"Carrefour City Centre Maadi","lat":30.0231,"lng":31.2179,"region":"Cairo"},
  {"id":"eg-003","country":"EG","type":"supermarket","name":"Metro Market - Downtown","lat":30.0440,"lng":31.2357,"region":"Cairo"},
  {"id":"eg-004","country":"EG","type":"hypermarket","name":"Carrefour - Alexandria","lat":31.2040,"lng":29.9180,"region":"Alexandria"},
  {"id":"eg-005","country":"EG","type":"supermarket","name":"Spinneys - Sokhna Road","lat":29.9350,"lng":32.4760,"region":"Suez"},
  {"id":"eg-006","country":"EG","type":"hospital","name":"Cairo University Hospital","lat":30.0214,"lng":31.2130,"region":"Cairo"},
  {"id":"eg-007","country":"EG","type":"hospital","name":"As-Salam International Hospital","lat":30.0776,"lng":31.2466,"region":"Cairo"},
  {"id":"eg-008","country":"EG","type":"petrol","name":"Shell Station - Ring Road","lat":30.0220,"lng":31.1675,"region":"Cairo"},
  {"id":"eg-009","country":"EG","type":"mall","name":"Cairo Festival City Mall","lat":30.0495,"lng":31.4183,"region":"Cairo"},
  {"id":"eg-010","country":"EG","type":"supermarket","name":"Aly Mini Market - 6th October","lat":29.9748,"lng":30.9150,"region":"eg-giza"},
  {"id":"eg-011","country":"EG","type":"hypermarket","name":"Metro Hyper - Cairo Mall","lat":30.0233,"lng":31.2189,"region":"Cairo"},
  {"id":"eg-012","country":"EG","type":"hospital","name":"Dar Al Fouad Hospital","lat":30.0334,"lng":31.2472,"region":"Cairo"},
  {"id":"eg-013","country":"EG","type":"petrol","name":"Total Station - Alexandria Rd","lat":31.2105,"lng":29.9208,"region":"Alexandria"},
  {"id":"eg-014","country":"EG","type":"supermarket","name":"Seif Grocery - Maadi","lat":30.0120,"lng":31.2245,"region":"Maadi"},
  {"id":"eg-015","country":"EG","type":"mall","name":"Mall of Arabia - 6th October","lat":29.9955,"lng":30.9200,"region":"eg-giza"},
  {"id":"eg-016","country":"EG","type":"hospital","name":"Gamal Abdel Nasser Hospital - Alexandria","lat":31.2008,"lng":29.9199,"region":"Alexandria"},
  {"id":"eg-017","country":"EG","type":"supermarket","name":"Family Market - Nasr City","lat":30.0700,"lng":31.3125,"region":"Cairo"},
  {"id":"eg-018","country":"EG","type":"hypermarket","name":"Hyper Star - Nasr City","lat":30.0712,"lng":31.3151,"region":"Cairo"},
  {"id":"eg-019","country":"EG","type":"petrol","name":"IPCO Station - Suez Rd","lat":29.9770,"lng":32.5400,"region":"Suez"},
  {"id":"eg-020","country":"EG","type":"supermarket","name":"Green Grocery - Smoha","lat":31.2290,"lng":29.9001,"region":"Alexandria"},
  {"id":"eg-021","country":"EG","type":"mall","name":"City Centre Almaza","lat":30.1005,"lng":31.3192,"region":"Cairo"},
  {"id":"eg-022","country":"EG","type":"supermarket","name":"MarketPlus - Dokki","lat":30.0460,"lng":31.1930,"region":"Giza"},
  {"id":"eg-023","country":"EG","type":"hospital","name":"El Galaa Hospital - Alexandria","lat":31.2100,"lng":29.9050,"region":"Alexandria"},
  {"id":"eg-024","country":"EG","type":"petrol","name":"Cairo Oil Station - Ring Rd","lat":30.0238,"lng":31.2001,"region":"Cairo"},
  {"id":"eg-025","country":"EG","type":"supermarket","name":"Downtown Market - Tahrir","lat":30.0452,"lng":31.2336,"region":"Cairo"},
  {"id":"eg-026","country":"EG","type":"hypermarket","name":"HyperMarket SuperCenter - Alexandria","lat":31.2060,"lng":29.9145,"region":"Alexandria"},
  {"id":"eg-027","country":"EG","type":"supermarket","name":"Sphinx Mini Market - 6th Oct","lat":29.9730,"lng":30.9102,"region":"eg-giza"},
  {"id":"eg-028","country":"EG","type":"mall","name":"Senou Mall - New Cairo","lat":30.0436,"lng":31.4251,"region":"New Cairo"},
  {"id":"eg-029","country":"EG","type":"hospital","name":"Al Mokhtabar Lab Hospital","lat":30.0125,"lng":31.2200,"region":"Maadi"},
  {"id":"eg-030","country":"EG","type":"supermarket","name":"El Othaim Market - Dokki","lat":30.0463,"lng":31.1902,"region":"Giza"},
  {"id":"eg-031","country":"EG","type":"petrol","name":"Agiba Station - Alexandria","lat":31.2150,"lng":29.9155,"region":"Alexandria"},
  {"id":"eg-032","country":"EG","type":"supermarket","name":"El Dahab Grocery - Hurghada","lat":27.2576,"lng":33.8116,"region":"Hurghada"},
  {"id":"eg-033","country":"EG","type":"hospital","name":"Hurghada General Hospital","lat":27.2570,"lng":33.8120,"region":"Hurghada"},
  {"id":"eg-034","country":"EG","type":"supermarket","name":"Red Sea Market - Hurghada","lat":27.2590,"lng":33.8200,"region":"Hurghada"},
  {"id":"eg-035","country":"EG","type":"hospital","name":"Aswan University Hospital","lat":24.0895,"lng":32.8981,"region":"Aswan"},
  {"id":"eg-036","country":"EG","type":"supermarket","name":"Nile Plaza Market - Luxor","lat":25.6940,"lng":32.6390,"region":"Luxor"},
  {"id":"eg-037","country":"EG","type":"petrol","name":"CPC Station - Qena Road","lat":26.1555,"lng":32.7160,"region":"Qena"},
  {"id":"eg-038","country":"EG","type":"mall","name":"Mall of Arabia - Alexandria Branch","lat":31.2050,"lng":29.9120,"region":"Alexandria"},
  {"id":"eg-039","country":"EG","type":"supermarket","name":"Central Market - Mansoura","lat":31.0410,"lng":31.3811,"region":"Mansoura"},
  {"id":"eg-040","country":"EG","type":"hospital","name":"Tanta University Hospital","lat":30.7868,"lng":31.0010,"region":"Tanta"},
  {"id":"eg-041","country":"EG","type":"supermarket","name":"Zagazig Market","lat":30.5877,"lng":31.5025,"region":"Zagazig"},
  {"id":"eg-042","country":"EG","type":"petrol","name":"Watania Station - New Cairo","lat":30.0360,"lng":31.4210,"region":"New Cairo"},
  {"id":"eg-043","country":"EG","type":"hypermarket","name":"Grand Hyper - Cairo","lat":30.0580,"lng":31.2235,"region":"Cairo"},
  {"id":"eg-044","country":"EG","type":"supermarket","name":"Se7r Market - Beni Suef","lat":29.0700,"lng":31.0970,"region":"Beni Suef"},
  {"id":"eg-045","country":"EG","type":"mall","name":"Senzo Mall - 6th October","lat":29.9875,"lng":30.9260,"region":"eg-giza"},
  {"id":"eg-046","country":"EG","type":"hospital","name":"Sohag General Hospital","lat":26.5560,"lng":31.6990,"region":"Sohag"},
  {"id":"eg-047","country":"EG","type":"supermarket","name":"El Habib Market - Damietta","lat":31.4160,"lng":31.8130,"region":"Damietta"},
  {"id":"eg-048","country":"EG","type":"petrol","name":"Petrol Alex Station - Smouha","lat":31.2208,"lng":29.9065,"region":"Alexandria"},
  {"id":"eg-049","country":"US","type":"hypermarket","name":"Walmart Supercenter - Los Angeles","lat":34.0528,"lng":-118.2440,"region":"Los Angeles"},
  {"id":"eg-050","country":"US","type":"hospital","name":"NYC General Hospital","lat":40.7132,"lng":-74.0061,"region":"New York"}
]
