[
  {"country":"EG","city":"Cairo","region":"Cairo Governorate","lat":30.0444,"lng":31.2357},
  {"country":"EG","city":"Giza","region":"Giza Governorate","lat":30.0131,"lng":31.2089},
  {"country":"EG","city":"Alexandria","region":"Alexandria Governorate","lat":31.2001,"lng":29.9187},
  {"country":"EG","city":"Luxor","region":"Luxor Governorate","lat":25.6872,"lng":32.6396},
  {"country":"EG","city":"Aswan","region":"Aswan Governorate","lat":24.0889,"lng":32.8998},
  {"country":"EG","city":"Suez","region":"Suez Governorate","lat":29.9668,"lng":32.5498},
  {"country":"EG","city":"Ismailia","region":"Ismailia Governorate","lat":30.5965,"lng":32.2715},
  {"country":"EG","city":"Mansoura","region":"Dakahlia Governorate","lat":31.0409,"lng":31.3809},
  {"country":"EG","city":"Tanta","region":"Gharbia Governorate","lat":30.7865,"lng":31.0004},
  {"country":"EG","city":"Zagazig","region":"Sharqia Governorate","lat":30.5878,"lng":31.5028},
  {"country":"EG","city":"Minya","region":"Minya Governorate","lat":28.1104,"lng":30.7469},
  {"country":"EG","city":"Faiyum","region":"Faiyum Governorate","lat":29.3084,"lng":30.8428},
  {"country":"EG","city":"Beni Suef","region":"Beni Suef Governorate","lat":29.0665,"lng":31.0989},
  {"country":"EG","city":"Sohag","region":"Sohag Governorate","lat":26.5564,"lng":31.6950},
  {"country":"EG","city":"Qena","region":"Qena Governorate","lat":26.1550,"lng":32.7166},
  {"country":"EG","city":"Hurghada","region":"Red Sea Governorate","lat":27.2579,"lng":33.8129},
  {"country":"EG","city":"Sharm El Sheikh","region":"South Sinai Governorate","lat":27.9158,"lng":34.3299},
  {"country":"EG","city":"6th of October City","region":"Giza Governorate","lat":29.9714,"lng":30.9141},
  {"country":"EG","city":"New Cairo","region":"Cairo Governorate","lat":30.0272,"lng":31.4024},
  {"country":"EG","city":"Maadi","region":"Cairo Governorate","lat":30.0113,"lng":31.2243},
  {"country":"US","city":"Los Angeles","region":"California","lat":34.0522,"lng":-118.2437},
  {"country":"US","city":"New York","region":"New York","lat":40.7128,"lng":-74.0060},
  {"country":"SA","city":"Riyadh","region":"Riyadh","lat":24.7136,"lng":46.6753},
  {"country":"AE","city":"Dubai","region":"Dubai","lat":25.2048,"lng":55.2708},
  {"country":"GB","city":"London","region":"England","lat":51.5074,"lng":-0.1278}
]
